{
"type": "FeatureCollection",
"name": "Laos_communes",
"crs": { "type": "name", "properties": { "name": "urn:ogc:def:crs:OGC:1.3:CRS84" } },
"features": [
{ "type": "Feature", "properties": { "ID_0": 123, "ISO": "LAO", "NAME_0": "Laos", "ID_1": 3, "NAME_1": "Bolikhamxai", "ID_2": 13, "NAME_2": "Khamkheuth", "TYPE_2": "Muong", "ENGTYPE_2": "District", "NL_NAME_2": null, "VARNAME_2": "Khamkeut|Khamkeuth#Kham kirth" }, "geometry": { "type": "Point", "coordinates": [ 104.921047220443597, 18.352979056624221 ] } },
{ "type": "Feature", "properties": { "ID_0": 123, "ISO": "LAO", "NAME_0": "Laos", "ID_1": 4, "NAME_1": "Champasak", "ID_2": 22, "NAME_2": "Paksong", "TYPE_2": "Muong", "ENGTYPE_2": "District", "NL_NAME_2": null, "VARNAME_2": "Pakxong#Pak Song" }, "geometry": { "type": "Point", "coordinates": [ 106.433568059702694, 15.098604940372008 ] } },
{ "type": "Feature", "properties": { "ID_0": 123, "ISO": "LAO", "NAME_0": "Laos", "ID_1": 5, "NAME_1": "Houaphan", "ID_2": 31, "NAME_2": "Viengthong", "TYPE_2": "Muong", "ENGTYPE_2": "District", "NL_NAME_2": null, "VARNAME_2": "Xieng Thong" }, "geometry": { "type": "Point", "coordinates": [ 103.402989547554739, 20.347763112702683 ] } },
{ "type": "Feature", "properties": { "ID_0": 123, "ISO": "LAO", "NAME_0": "Laos", "ID_1": 6, "NAME_1": "Khammouan", "ID_2": 37, "NAME_2": "Hinboon", "TYPE_2": "Muong", "ENGTYPE_2": "District", "NL_NAME_2": null, "VARNAME_2": "Hineboune#Hin Boun" }, "geometry": { "type": "Point", "coordinates": [ 104.595644040783711, 17.877002575988453 ] } },
{ "type": "Feature", "properties": { "ID_0": 123, "ISO": "LAO", "NAME_0": "Laos", "ID_1": 6, "NAME_1": "Khammouan", "ID_2": 39, "NAME_2": "Nakai", "TYPE_2": "Muong", "ENGTYPE_2": "District", "NL_NAME_2": null, "VARNAME_2": "Na Kay" }, "geometry": { "type": "Point", "coordinates": [ 105.291425002144294, 17.869260740256749 ] } },
{ "type": "Feature", "properties": { "ID_0": 123, "ISO": "LAO", "NAME_0": "Laos", "ID_1": 7, "NAME_1": "Louang Namtha", "ID_2": 45, "NAME_2": "Long", "TYPE_2": "Muong", "ENGTYPE_2": "District", "NL_NAME_2": null, "VARNAME_2": null }, "geometry": { "type": "Point", "coordinates": [ 100.831326578723406, 20.985060312906981 ] } },
{ "type": "Feature", "properties": { "ID_0": 123, "ISO": "LAO", "NAME_0": "Laos", "ID_1": 8, "NAME_1": "Louangphrabang", "ID_2": 60, "NAME_2": "Xieng Ngeun", "TYPE_2": "Muong", "ENGTYPE_2": "District", "NL_NAME_2": null, "VARNAME_2": "Xiengngeun" }, "geometry": { "type": "Point", "coordinates": [ 102.253390347837694, 19.615924200454582 ] } },
{ "type": "Feature", "properties": { "ID_0": 123, "ISO": "LAO", "NAME_0": "Laos", "ID_1": 10, "NAME_1": "Phôngsali", "ID_2": 72, "NAME_2": "Nhot Ou", "TYPE_2": "Muong", "ENGTYPE_2": "District", "NL_NAME_2": null, "VARNAME_2": "Yot Ou#Ngou Ou" }, "geometry": { "type": "Point", "coordinates": [ 101.874003339617545, 22.195993935733402 ] } },
{ "type": "Feature", "properties": { "ID_0": 123, "ISO": "LAO", "NAME_0": "Laos", "ID_1": 12, "NAME_1": "Savannakhét", "ID_2": 89, "NAME_2": "Phine", "TYPE_2": "Muong", "ENGTYPE_2": "District", "NL_NAME_2": null, "VARNAME_2": null }, "geometry": { "type": "Point", "coordinates": [ 106.030256812040477, 16.443446571145831 ] } },
{ "type": "Feature", "properties": { "ID_0": 123, "ISO": "LAO", "NAME_0": "Laos", "ID_1": 15, "NAME_1": "Xékong", "ID_2": 118, "NAME_2": "Kaleum", "TYPE_2": "Muong", "ENGTYPE_2": "District", "NL_NAME_2": null, "VARNAME_2": "Ka Lerm" }, "geometry": { "type": "Point", "coordinates": [ 107.032636859900848, 15.862778126662976 ] } },
{ "type": "Feature", "properties": { "ID_0": 123, "ISO": "LAO", "NAME_0": "Laos", "ID_1": 16, "NAME_1": "Xaignabouri", "ID_2": 127, "NAME_2": "Phiang", "TYPE_2": "Muong", "ENGTYPE_2": "District", "NL_NAME_2": null, "VARNAME_2": "Phieng" }, "geometry": { "type": "Point", "coordinates": [ 101.472709490281787, 18.877327310523956 ] } }
]
}
